,City,Country,Date,Lat,Lng,Max Temp,Humidity,Cloudiness,Wind Speed,Current Description,Rain inches (last 3 hours),Snow inches (last 3 hours)
0,Lompoc,US,2021-11-07 00:38:30,34.6391,-120.4579,69.94,76,1,11.5,clear sky,0,0
1,Ushuaia,AR,2021-11-07 00:36:10,-54.8,-68.3,42.46,93,90,6.91,light intensity drizzle,0,0
2,Kruisfontein,ZA,2021-11-07 00:38:30,-34.0033,24.7314,58.89,78,100,4.47,overcast clouds,0,0
3,Hithadhoo,MV,2021-11-07 00:38:31,-0.6,73.0833,82.96,69,96,15.97,overcast clouds,0,0
4,Hermanus,ZA,2021-11-07 00:38:31,-34.4187,19.2345,56.89,78,17,5.61,few clouds,0,0
5,Niquelandia,BR,2021-11-07 00:38:31,-14.4739,-48.4597,74.64,80,99,2.1,overcast clouds,0,0
6,Bluff,NZ,2021-11-07 00:36:35,-46.6,168.3333,63.81,80,96,9.55,overcast clouds,0,0
7,Chanika,TZ,2021-11-07 00:38:32,-5.4167,38.0167,66.88,89,87,2.77,overcast clouds,0,0
8,Sao Filipe,CV,2021-11-07 00:35:05,14.8961,-24.4956,78.75,72,57,9.33,broken clouds,0,0
9,Rikitea,PF,2021-11-07 00:38:32,-23.1203,-134.9692,75.72,81,96,15.17,overcast clouds,0,0
10,Balikpapan,ID,2021-11-07 00:38:33,-1.2675,116.8289,83.39,89,20,5.75,few clouds,0,0
11,Adzope,CI,2021-11-07 00:38:33,6.1069,-3.8619,72.77,98,92,2.3,overcast clouds,0,0
12,Naron,ES,2021-11-07 00:38:34,43.5167,-8.1528,52.02,82,0,7.2,clear sky,0,0
13,Kapaa,US,2021-11-07 00:38:34,22.0752,-159.319,84.18,74,40,5.99,light rain,0,0
14,Tuktoyaktuk,CA,2021-11-07 00:38:34,69.4541,-133.0374,9.03,91,12,8.7,few clouds,0,0
15,Cape Town,ZA,2021-11-07 00:35:09,-33.9258,18.4232,58.26,75,0,1.99,clear sky,0,0
16,Mataura,NZ,2021-11-07 00:33:51,-46.1927,168.8643,63.48,35,74,2.13,broken clouds,0,0
17,Port Hedland,AU,2021-11-07 00:38:35,-20.3167,118.5667,80.65,74,75,9.22,broken clouds,0,0
18,Portland,US,2021-11-07 00:34:00,45.5234,-122.6762,49.21,86,75,3.0,moderate rain,0,0
19,Saint George,US,2021-11-07 00:36:05,37.1041,-113.5841,75.79,26,1,1.99,clear sky,0,0
20,Novyy Urgal,RU,2021-11-07 00:38:36,51.0736,132.5642,17.6,49,0,2.62,clear sky,0,0
21,Saskylakh,RU,2021-11-07 00:38:36,71.9167,114.0833,-1.75,98,31,7.54,scattered clouds,0,0
22,Chadiza,ZM,2021-11-07 00:38:36,-14.0678,32.4392,70.27,34,32,3.09,scattered clouds,0,0
23,Griffith,US,2021-11-07 00:38:37,41.5284,-87.4237,55.89,64,1,1.01,clear sky,0,0
24,Vaini,TO,2021-11-07 00:38:37,-21.2,-175.2,82.56,89,75,6.91,broken clouds,0,0
25,Puerto Ayora,EC,2021-11-07 00:38:37,-0.7393,-90.3518,69.37,77,49,9.73,scattered clouds,0,0
26,Ugoofaaru,MV,2021-11-07 00:38:38,5.6667,73.0,82.22,76,100,16.11,overcast clouds,0,0
27,Simbahan,PH,2021-11-07 00:38:38,6.3032,120.5836,84.49,74,53,9.35,broken clouds,0,0
28,Carnarvon,AU,2021-11-07 00:38:38,-24.8667,113.6333,68.07,68,40,21.85,scattered clouds,0,0
29,Saint-Philippe,RE,2021-11-07 00:38:39,-21.3585,55.7679,72.99,81,38,8.93,scattered clouds,0,0
30,Okhotsk,RU,2021-11-07 00:38:39,59.3833,143.3,12.02,82,100,28.01,overcast clouds,0,0
31,Georgetown,MY,2021-11-07 00:38:40,5.4112,100.3354,80.89,87,20,1.01,few clouds,0,0
32,Bontang,ID,2021-11-07 00:38:40,0.1333,117.5,81.81,79,100,2.82,overcast clouds,0,0
33,Albany,US,2021-11-07 00:36:25,42.6001,-73.9662,38.52,75,0,2.46,clear sky,0,0
34,Dikson,RU,2021-11-07 00:38:41,73.5069,80.5464,17.4,95,100,3.18,light snow,0,0
35,Saint Anthony,US,2021-11-07 00:38:41,45.0205,-93.218,58.89,59,1,1.99,clear sky,0,0
36,Upata,VE,2021-11-07 00:38:41,8.0086,-62.3989,73.18,97,92,3.13,overcast clouds,0,0
37,Olinda,BR,2021-11-07 00:38:42,-8.0089,-34.8553,82.13,74,40,8.05,scattered clouds,0,0
38,Padang,ID,2021-11-07 00:38:42,-0.9492,100.3543,75.25,95,100,2.26,light rain,0,0
39,Itumba,TZ,2021-11-07 00:38:42,-9.4,33.1833,63.46,66,97,3.83,overcast clouds,0,0
40,Canandaigua,US,2021-11-07 00:38:43,42.8742,-77.288,42.33,76,5,7.36,clear sky,0,0
41,Port Lincoln,AU,2021-11-07 00:38:43,-34.7333,135.8667,59.16,54,92,6.93,overcast clouds,0,0
42,Leningradskiy,RU,2021-11-07 00:38:43,69.3833,178.4167,-5.94,89,3,5.39,clear sky,0,0
43,Belaya Gora,RU,2021-11-07 00:38:44,68.5333,146.4167,-8.0,95,28,2.95,scattered clouds,0,0
44,Ponta Do Sol,PT,2021-11-07 00:37:38,32.6667,-17.1,68.63,66,36,8.41,scattered clouds,0,0
45,Lata,PT,2021-11-07 00:38:44,40.1629,-8.3327,46.04,70,6,4.47,clear sky,0,0
46,Hilo,US,2021-11-07 00:33:56,19.7297,-155.09,80.33,71,75,6.91,broken clouds,0,0
47,Madawaska,US,2021-11-07 00:38:45,47.3561,-68.3288,38.5,65,1,5.75,clear sky,0,0
48,Iqaluit,CA,2021-11-07 00:38:45,63.7506,-68.5145,22.73,73,40,13.0,scattered clouds,0,0
49,Souillac,MU,2021-11-07 00:38:45,-20.5167,57.5167,75.58,83,40,5.75,scattered clouds,0,0
50,Usinsk,RU,2021-11-07 00:38:46,65.9939,57.5281,34.36,100,100,13.33,light rain,0,0
51,Issa,RU,2021-11-07 00:38:46,53.8705,44.8578,40.26,93,100,12.44,overcast clouds,0,0
52,Lasa,IT,2021-11-07 00:38:46,46.6166,10.7002,32.88,52,0,1.36,clear sky,0,0
53,Capaci,IT,2021-11-07 00:38:47,38.1711,13.2393,74.12,50,5,4.0,clear sky,0,0
54,Guebwiller,FR,2021-11-07 00:38:47,47.9167,7.2,39.34,95,100,3.62,overcast clouds,0,0
55,Torbay,CA,2021-11-07 00:35:31,47.6666,-52.7314,41.27,82,90,12.66,overcast clouds,0,0
56,Ancud,CL,2021-11-07 00:38:48,-41.8697,-73.8203,53.13,90,7,7.56,clear sky,0,0
57,San Roque,ES,2021-11-07 00:38:48,36.2107,-5.3842,54.43,54,0,5.75,clear sky,0,0
58,Brandon,US,2021-11-07 00:38:48,27.9378,-82.2859,62.51,90,90,4.0,overcast clouds,0,0
59,Coos Bay,US,2021-11-07 00:38:49,43.3665,-124.2179,50.94,91,75,10.36,broken clouds,0,0
60,Tecolutla,MX,2021-11-07 00:38:49,20.4833,-97.0167,73.83,79,59,7.47,broken clouds,0,0
61,Cabo San Lucas,MX,2021-11-07 00:35:13,22.8909,-109.9124,81.05,68,30,6.11,scattered clouds,0,0
62,Nizhneangarsk,RU,2021-11-07 00:38:50,55.7833,109.55,18.41,73,97,3.65,overcast clouds,0,0
63,Hirara,JP,2021-11-07 00:38:50,24.8,125.2833,79.07,73,20,12.66,few clouds,0,0
64,Arraial Do Cabo,BR,2021-11-07 00:37:31,-22.9661,-42.0278,69.42,73,10,5.46,clear sky,0,0
65,Cockburn Town,TC,2021-11-07 00:38:51,21.4612,-71.1419,82.36,74,40,8.05,scattered clouds,0,0
66,Thompson,CA,2021-11-07 00:38:51,55.7435,-97.8558,30.36,93,90,0.0,overcast clouds,0,0
67,Nelson Bay,AU,2021-11-07 00:38:51,-32.7167,152.15,76.08,71,100,1.99,light rain,0,0
68,Port Alfred,ZA,2021-11-07 00:38:52,-33.5906,26.891,63.34,88,100,2.01,light rain,0,0
69,Yellowknife,CA,2021-11-07 00:35:25,62.456,-114.3525,31.41,90,75,9.22,broken clouds,0,0
70,Hobart,AU,2021-11-07 00:38:52,-42.8794,147.3294,59.11,60,75,1.01,broken clouds,0,0
71,Mount Gambier,AU,2021-11-07 00:36:08,-37.8333,140.7667,58.91,55,90,8.05,overcast clouds,0,0
72,Nouadhibou,MR,2021-11-07 00:38:53,20.931,-17.0347,67.98,73,0,18.41,clear sky,0,0
73,Luderitz,NA,2021-11-07 00:38:53,-26.6481,15.1594,57.38,74,5,17.78,clear sky,0,0
74,Castro,BR,2021-11-07 00:38:54,-24.7911,-50.0119,63.09,98,22,5.91,few clouds,0,0
75,Kavieng,PG,2021-11-07 00:38:54,-2.5744,150.7967,85.8,69,20,15.1,light rain,0,0
76,Karema,TZ,2021-11-07 00:38:54,-6.8205,30.4389,73.35,49,100,5.03,overcast clouds,0,0
77,Saint-Georges,GD,2021-11-07 00:38:54,12.0564,-61.7485,80.28,83,20,6.91,few clouds,0,0
78,Novopskov,UA,2021-11-07 00:38:55,49.5464,39.0899,41.97,84,0,7.29,clear sky,0,0
79,Kumylzhenskaya,RU,2021-11-07 00:38:55,49.8809,42.5898,46.85,86,43,8.08,scattered clouds,0,0
80,Los Llanos De Aridane,ES,2021-11-07 00:38:56,28.6585,-17.9182,64.15,74,75,11.99,broken clouds,0,0
81,Lagoa,PT,2021-11-07 00:38:56,39.05,-27.9833,68.38,85,47,28.97,scattered clouds,0,0
82,Bredasdorp,ZA,2021-11-07 00:38:56,-34.5322,20.0403,52.92,82,27,3.44,scattered clouds,0,0
83,Punta Arenas,CL,2021-11-07 00:38:57,-53.15,-70.9167,50.11,81,90,9.22,overcast clouds,0,0
84,East London,ZA,2021-11-07 00:34:01,-33.0153,27.9116,64.26,90,100,3.24,light rain,0,0
85,Wau,SS,2021-11-07 00:38:57,7.7029,27.9953,75.76,70,84,2.53,broken clouds,0,0
86,Sorong,ID,2021-11-07 00:38:58,-0.8833,131.25,82.09,78,74,3.06,broken clouds,0,0
87,Kenora,CA,2021-11-07 00:38:58,49.8167,-94.4337,49.17,76,40,9.22,scattered clouds,0,0
88,Ribeira Grande,PT,2021-11-07 00:38:58,38.5167,-28.7,69.73,88,92,27.51,overcast clouds,0,0
89,Kaitangata,NZ,2021-11-07 00:38:59,-46.2817,169.8464,59.94,72,100,7.2,overcast clouds,0,0
90,Gat,IL,2021-11-07 00:38:59,31.61,34.7642,71.4,45,0,3.89,clear sky,0,0
91,Holoby,UA,2021-11-07 00:38:59,51.0865,25.0077,36.05,82,6,8.95,clear sky,0,0
92,Avarua,CK,2021-11-07 00:39:00,-21.2078,-159.775,77.05,65,75,16.11,broken clouds,0,0
93,Vestmanna,FO,2021-11-07 00:39:00,62.1564,-7.1664,45.52,100,90,1.14,overcast clouds,0,0
94,Constitucion,CL,2021-11-07 00:39:00,-35.3333,-72.4167,50.38,94,11,9.35,few clouds,0,0
95,Pagudpud,PH,2021-11-07 00:39:01,18.5616,120.7868,82.36,67,2,7.14,clear sky,0,0
96,Pervoye Maya,RU,2021-11-07 00:39:02,56.164,44.7196,40.71,78,100,12.01,overcast clouds,0,0
97,Nushki,PK,2021-11-07 00:39:03,29.5542,66.0215,51.08,45,2,0.69,clear sky,0,0
98,Banfora,BF,2021-11-07 00:39:03,10.6333,-4.7667,79.29,63,8,2.68,clear sky,0,0
99,Viedma,AR,2021-11-07 00:36:17,-40.8135,-62.9967,58.35,49,100,16.24,overcast clouds,0,0
100,Chuy,UY,2021-11-07 00:39:04,-33.6971,-53.4616,54.9,77,6,5.41,clear sky,0,0
101,Yangambi,CD,2021-11-07 00:39:04,0.8102,24.4336,68.43,100,100,0.16,moderate rain,0,0
102,Zhangjiakou,CN,2021-11-07 00:39:04,40.81,114.8794,16.36,85,100,8.39,overcast clouds,0,0
103,Luangwa,ZM,2021-11-07 00:39:05,-15.6167,30.4167,76.82,40,1,2.66,clear sky,0,0
104,Codrington,AU,2021-11-07 00:39:05,-38.2667,141.9667,57.06,56,100,9.55,overcast clouds,0,0
105,Cherskiy,RU,2021-11-07 00:38:55,68.75,161.3,18.46,95,100,8.46,light snow,0,0
106,Batemans Bay,AU,2021-11-07 00:39:06,-35.7167,150.1833,79.2,60,64,8.46,broken clouds,0,0
107,Nome,US,2021-11-07 00:39:06,64.5011,-165.4064,21.27,68,90,3.44,overcast clouds,0,0
108,Atuona,PF,2021-11-07 00:39:07,-9.8,-139.0333,78.22,67,5,15.3,clear sky,0,0
109,Yucca Valley,US,2021-11-07 00:35:35,34.1142,-116.4322,76.05,27,0,5.01,clear sky,0,0
110,Juneau,US,2021-11-07 00:39:07,58.3019,-134.4197,44.6,92,40,4.61,scattered clouds,0,0
111,Canguaretama,BR,2021-11-07 00:39:08,-6.38,-35.1289,81.09,87,12,8.25,few clouds,0,0
112,Ishigaki,JP,2021-11-07 00:39:08,24.3448,124.1572,78.93,78,20,9.22,few clouds,0,0
113,Kabompo,ZM,2021-11-07 00:39:08,-13.5927,24.2008,64.47,40,6,1.74,clear sky,0,0
114,Thinadhoo,MV,2021-11-07 00:37:03,0.5333,72.9333,83.14,71,99,16.26,overcast clouds,0,0
115,Airai,TL,2021-11-07 00:39:09,-8.9266,125.4092,75.72,51,42,1.9,scattered clouds,0,0
116,Talnakh,RU,2021-11-07 00:38:59,69.4865,88.3972,18.9,93,100,18.92,light snow,0,0
117,Abu Dhabi,AE,2021-11-07 00:39:09,24.4667,54.3667,75.22,69,0,0.0,clear sky,0,0
118,Pangnirtung,CA,2021-11-07 00:39:10,66.1451,-65.7125,12.7,61,12,10.65,few clouds,0,0
119,Vila Franca Do Campo,PT,2021-11-07 00:39:10,37.7167,-25.4333,68.41,81,4,15.79,clear sky,0,0
120,Sembe,CG,2021-11-07 00:39:10,1.6481,14.5806,70.36,99,100,2.44,overcast clouds,0,0
121,Upernavik,GL,2021-11-07 00:39:11,72.7868,-56.1549,14.56,87,95,10.67,overcast clouds,0,0
122,Inhambane,MZ,2021-11-07 00:39:11,-23.865,35.3833,72.01,90,58,4.59,broken clouds,0,0
123,Yeppoon,AU,2021-11-07 00:39:11,-23.1333,150.7333,82.18,63,98,15.32,overcast clouds,0,0
124,Tessalit,ML,2021-11-07 00:39:12,20.1986,1.0114,79.23,19,84,6.87,broken clouds,0,0
125,Orlik,RU,2021-11-07 00:39:12,52.5178,99.825,5.63,91,86,2.39,overcast clouds,0,0
126,Bethel,US,2021-11-07 00:36:22,41.3712,-73.414,42.66,74,1,3.44,clear sky,0,0
127,Yarensk,RU,2021-11-07 00:39:13,62.1675,49.0916,36.88,97,100,10.13,overcast clouds,0,0
128,Kodinsk,RU,2021-11-07 00:39:13,58.6881,99.1844,22.24,90,98,9.17,overcast clouds,0,0
129,Kushima,JP,2021-11-07 00:39:13,31.4583,131.2333,66.24,71,44,13.94,scattered clouds,0,0
130,Port Blair,IN,2021-11-07 00:39:14,11.6667,92.75,82.15,75,86,7.02,overcast clouds,0,0
131,Rawson,AR,2021-11-07 00:39:14,-43.3002,-65.1023,65.21,37,100,29.12,overcast clouds,0,0
132,Jamestown,US,2021-11-07 00:38:34,42.097,-79.2353,44.24,60,1,1.99,clear sky,0,0
133,Whitianga,NZ,2021-11-07 00:39:15,-36.8333,175.7,64.92,70,75,2.24,broken clouds,0,0
134,Comodoro Rivadavia,AR,2021-11-07 00:39:15,-45.8667,-67.5,76.86,14,0,11.5,clear sky,0,0
135,Husavik,IS,2021-11-07 00:35:03,66.0449,-17.3389,33.71,98,100,7.47,light rain,0,0
136,Yinchuan,CN,2021-11-07 00:39:16,38.4681,106.2731,23.13,37,0,5.23,clear sky,0,0
137,Cloquet,US,2021-11-07 00:39:16,46.7216,-92.4594,55.58,57,1,5.75,clear sky,0,0
138,Mahebourg,MU,2021-11-07 00:39:16,-20.4081,57.7,75.49,83,40,5.75,scattered clouds,0,0
139,Hofn,IS,2021-11-07 00:39:17,64.2539,-15.2082,36.95,90,100,7.81,light rain,0,0
140,Nanortalik,GL,2021-11-07 00:39:17,60.1432,-45.2371,31.3,74,100,11.43,overcast clouds,0,0
141,San Quintin,MX,2021-11-07 00:37:49,30.4833,-115.95,66.43,83,0,7.96,clear sky,0,0
142,Port Lavaca,US,2021-11-07 00:39:18,28.615,-96.6261,63.99,72,1,0.0,clear sky,0,0
143,Ostrovnoy,RU,2021-11-07 00:39:18,68.0531,39.5131,33.21,91,100,29.84,snow,0,0
144,Busselton,AU,2021-11-07 00:39:18,-33.65,115.3333,58.05,51,13,7.36,few clouds,0,0
145,Taldan,RU,2021-11-07 00:39:19,53.6667,124.8,15.64,47,100,2.71,overcast clouds,0,0
146,Shawville,CA,2021-11-07 00:39:19,45.6001,-76.4827,41.97,89,61,6.44,broken clouds,0,0
147,Nenita,PH,2021-11-07 00:39:19,12.4917,124.8044,81.05,90,100,6.08,overcast clouds,0,0
148,Hami,CN,2021-11-07 00:39:20,42.8,93.45,24.6,33,0,1.83,clear sky,0,0
149,Aswan,EG,2021-11-07 00:39:20,24.0934,32.907,76.1,34,0,8.57,clear sky,0,0
150,Pevek,RU,2021-11-07 00:39:21,69.7008,170.3133,2.44,79,100,11.83,overcast clouds,0,0
151,Cervo,ES,2021-11-07 00:39:21,43.6702,-7.4101,52.2,72,0,8.21,clear sky,0,0
152,Kodiak,US,2021-11-07 00:39:21,57.79,-152.4072,33.4,63,9,9.71,clear sky,0,0
153,Stornoway,GB,2021-11-07 00:39:22,58.2093,-6.3865,46.92,74,95,38.34,overcast clouds,0,0
154,Khatanga,RU,2021-11-07 00:37:47,71.9667,102.5,10.76,95,100,4.9,overcast clouds,0,0
155,Alpena,US,2021-11-07 00:39:22,45.0617,-83.4327,51.12,66,1,3.0,clear sky,0,0
156,Qaanaaq,GL,2021-11-07 00:39:23,77.484,-69.3632,5.72,74,90,7.63,overcast clouds,0,0
157,Rumoi,JP,2021-11-07 00:39:15,43.9344,141.6428,45.12,88,100,7.18,overcast clouds,0,0
158,Daru,PG,2021-11-07 00:39:23,-9.0763,143.2092,86.45,67,38,6.82,scattered clouds,0,0
159,Halifax,CA,2021-11-07 00:36:01,44.6453,-63.5724,41.05,79,0,3.44,clear sky,0,0
160,Saint-Raphael,HT,2021-11-07 00:39:24,19.4333,-72.2,73.83,84,79,1.66,broken clouds,0,0
161,Buzmeyin,TM,2021-11-07 00:39:24,38.0507,58.2056,33.53,60,20,2.3,few clouds,0,0
162,Mar Del Plata,AR,2021-11-07 00:39:10,-38.0023,-57.5575,53.87,79,100,10.0,overcast clouds,0,0
163,Tazovskiy,RU,2021-11-07 00:39:25,67.4667,78.7,32.7,96,100,16.55,overcast clouds,0,0
164,Lebu,CL,2021-11-07 00:39:25,-37.6167,-73.65,52.23,87,34,14.12,scattered clouds,0,0
165,Vardo,NO,2021-11-07 00:39:25,70.3705,31.1107,34.52,58,100,14.65,overcast clouds,0,0
166,Saldanha,ZA,2021-11-07 00:39:26,-33.0117,17.9442,51.85,69,100,17.81,overcast clouds,0,0
167,Harper,LR,2021-11-07 00:39:26,4.375,-7.7169,77.63,86,13,3.6,few clouds,0,0
168,Araouane,ML,2021-11-07 00:39:26,18.9048,-3.5265,81.23,19,83,8.99,broken clouds,0,0
169,Taoudenni,ML,2021-11-07 00:39:27,22.6783,-3.9836,75.79,19,0,5.28,clear sky,0,0
170,Bac Lieu,VN,2021-11-07 00:39:27,9.285,105.7244,82.9,81,80,11.39,broken clouds,0,0
171,Katsuura,JP,2021-11-07 00:38:59,35.1333,140.3,63.1,80,100,7.67,overcast clouds,0,0
172,Pombia,IT,2021-11-07 00:39:27,45.653,8.6336,46.35,79,0,9.22,clear sky,0,0
173,Fukue,JP,2021-11-07 00:39:28,32.6881,128.8419,66.56,68,20,12.66,few clouds,0,0
174,Andahuaylas,PE,2021-11-07 00:39:28,-13.6556,-73.3872,54.41,84,100,4.88,overcast clouds,0,0
175,Bilma,NE,2021-11-07 00:36:21,18.6853,12.9164,76.14,16,100,4.18,overcast clouds,0,0
176,Raahe,FI,2021-11-07 00:39:29,64.6833,24.4833,35.01,76,100,12.88,overcast clouds,0,0
177,Yankton,US,2021-11-07 00:37:45,42.8711,-97.3973,62.85,39,1,9.22,clear sky,0,0
178,Nuuk,GL,2021-11-07 00:36:05,64.1835,-51.7216,29.01,69,75,12.66,broken clouds,0,0
179,Port Elizabeth,ZA,2021-11-07 00:38:55,-33.918,25.5701,61.11,88,75,13.8,broken clouds,0,0
180,Banikoara,BJ,2021-11-07 00:39:29,11.2985,2.4386,76.35,32,74,1.19,broken clouds,0,0
181,Heihe,CN,2021-11-07 00:39:30,50.2441,127.4902,16.38,32,0,4.07,clear sky,0,0
182,Namibe,AO,2021-11-07 00:39:30,-15.1961,12.1522,70.79,79,100,1.79,overcast clouds,0,0
183,Teodoro Sampaio,BR,2021-11-07 00:39:30,-22.5325,-52.1675,76.01,83,100,5.26,overcast clouds,0,0
184,Makakilo City,US,2021-11-07 00:39:31,21.3469,-158.0858,86.32,59,20,11.5,few clouds,0,0
185,Vostok,RU,2021-11-07 00:39:31,46.4856,135.8833,20.01,56,100,3.83,overcast clouds,0,0
186,Riberalta,BO,2021-11-07 00:39:31,-10.9833,-66.1,78.73,71,100,4.45,overcast clouds,0,0
187,Sosnovka,RU,2021-11-07 00:39:32,56.255,51.2842,41.81,91,99,12.39,overcast clouds,0,0
188,Hobyo,SO,2021-11-07 00:36:22,5.3505,48.5268,79.3,67,76,5.3,broken clouds,0,0
189,Clyde River,CA,2021-11-07 00:39:32,70.4692,-68.5914,6.44,89,48,4.74,scattered clouds,0,0
190,Liverpool,GB,2021-11-07 00:36:11,53.4106,-2.9779,52.83,73,40,7.0,scattered clouds,0,0
191,La Serena,CL,2021-11-07 00:39:33,-29.9078,-71.2542,56.71,82,0,9.22,clear sky,0,0
192,Venice,US,2021-11-07 00:38:42,27.0998,-82.4543,64.99,83,75,10.0,broken clouds,0,0
193,Kutum,SD,2021-11-07 00:39:33,14.2,24.6667,69.93,30,0,8.3,clear sky,0,0
194,Severo-Kurilsk,RU,2021-11-07 00:36:24,50.6789,156.125,39.15,68,25,9.82,scattered clouds,0,0
195,Rocha,UY,2021-11-07 00:39:34,-34.4833,-54.3333,50.45,87,16,1.34,few clouds,0,0
196,Beringovskiy,RU,2021-11-07 00:39:34,63.05,179.3167,17.28,88,31,6.22,scattered clouds,0,0
197,Mercedes,AR,2021-11-07 00:39:35,-34.6515,-59.4307,62.83,63,100,11.27,overcast clouds,0,0
198,Tiksi,RU,2021-11-07 00:39:35,71.6872,128.8694,-0.35,87,100,15.19,overcast clouds,0,0
199,Deputatskiy,RU,2021-11-07 00:39:35,69.3,139.9,-9.56,95,100,6.02,overcast clouds,0,0
200,Esperance,AU,2021-11-07 00:39:36,-33.8667,121.9,60.64,61,42,2.86,scattered clouds,0,0
201,Yar-Sale,RU,2021-11-07 00:39:36,66.8333,70.8333,34.12,98,100,16.22,overcast clouds,0,0
202,Narsaq,GL,2021-11-07 00:39:36,60.9167,-46.05,25.02,73,100,8.34,overcast clouds,0,0
203,Bambous Virieux,MU,2021-11-07 00:39:37,-20.3428,57.7575,75.45,83,40,5.75,scattered clouds,0,0
204,Pavlogradka,RU,2021-11-07 00:39:37,54.2024,73.5592,32.4,37,98,17.13,overcast clouds,0,0
205,Huarmey,PE,2021-11-07 00:39:37,-10.0681,-78.1522,65.66,84,92,9.28,overcast clouds,0,0
206,Kaeo,NZ,2021-11-07 00:39:38,-35.1,173.7833,68.45,65,48,7.49,scattered clouds,0,0
207,Muros,ES,2021-11-07 00:39:38,42.7762,-9.0603,50.99,89,0,12.33,clear sky,0,0
208,Belaya Kholunitsa,RU,2021-11-07 00:39:38,58.84,50.8528,40.82,77,93,11.95,overcast clouds,0,0
209,Chardara,KZ,2021-11-07 00:39:39,41.2547,67.9692,36.18,36,0,5.77,clear sky,0,0
210,Sept-Iles,CA,2021-11-07 00:35:10,50.2001,-66.3821,44.06,74,75,8.99,broken clouds,0,0
211,Tromso,NO,2021-11-07 00:39:39,69.6496,18.957,33.39,93,0,1.14,clear sky,0,0
212,Senekal,ZA,2021-11-07 00:39:39,-28.3197,27.6208,60.49,50,10,3.09,clear sky,0,0
213,Kloulklubed,PW,2021-11-07 00:39:40,7.0419,134.2556,84.7,72,94,11.63,overcast clouds,0,0
214,La Ligua,CL,2021-11-07 00:39:40,-32.4524,-71.2311,55.18,85,0,1.68,clear sky,0,0
215,Lindenhurst,US,2021-11-07 00:38:57,40.6868,-73.3735,51.75,65,1,0.0,clear sky,0,0
216,Umba,RU,2021-11-07 00:39:41,66.6871,34.3429,33.3,88,100,17.81,overcast clouds,0,0
217,Luanda,AO,2021-11-07 00:39:41,-8.8368,13.2343,75.22,82,100,5.66,light rain,0,0
218,Samarai,PG,2021-11-07 00:39:41,-10.6167,150.6667,84.99,69,6,15.73,clear sky,0,0
219,Lashio,MM,2021-11-07 00:39:42,22.9333,97.75,62.44,85,8,1.57,clear sky,0,0
220,Rincon,US,2021-11-07 00:37:49,32.296,-81.2354,51.85,94,90,1.99,overcast clouds,0,0
221,Finschhafen,PG,2021-11-07 00:39:42,-6.6024,147.8681,85.89,60,60,7.61,broken clouds,0,0
222,Lavrentiya,RU,2021-11-07 00:39:43,65.5833,-171.0,7.86,78,66,4.54,broken clouds,0,0
223,Burns Lake,CA,2021-11-07 00:39:43,54.2331,-125.7533,29.62,78,100,2.08,overcast clouds,0,0
224,Te Anau,NZ,2021-11-07 00:35:49,-45.4167,167.7167,68.74,38,95,4.16,overcast clouds,0,0
225,Fairlie,GB,2021-11-07 00:39:43,55.756,-4.8556,47.23,85,87,13.0,overcast clouds,0,0
226,Manyana,BW,2021-11-07 00:39:44,-23.4,21.7167,76.32,39,100,5.57,overcast clouds,0,0
227,Altay,CN,2021-11-07 00:39:44,47.8667,88.1167,14.77,59,100,5.57,overcast clouds,0,0
228,Westport,US,2021-11-07 00:39:45,41.1415,-73.3579,48.97,61,1,0.0,clear sky,0,0
229,Verkhoyansk,RU,2021-11-07 00:39:45,67.5447,133.385,-15.09,89,25,5.5,scattered clouds,0,0
230,North Port,US,2021-11-07 00:39:45,27.0442,-82.2359,65.98,78,91,11.99,overcast clouds,0,0
231,Provideniya,RU,2021-11-07 00:39:46,64.3833,-173.3,20.8,89,98,7.65,light snow,0,0
232,Roebourne,AU,2021-11-07 00:37:18,-20.7833,117.1333,84.13,45,5,8.97,clear sky,0,0
233,Ocean City,US,2021-11-07 00:39:46,39.2776,-74.5746,51.98,73,24,8.01,few clouds,0,0
234,Curup,ID,2021-11-07 00:39:47,-3.4667,102.5333,68.68,99,100,3.74,overcast clouds,0,0
235,Nikolskoye,RU,2021-11-07 00:39:47,59.7035,30.7861,40.87,83,60,8.99,broken clouds,0,0
236,Revelstoke,CA,2021-11-07 00:39:47,50.9832,-118.2023,39.22,93,90,11.5,light rain,0,0
237,Tocopilla,CL,2021-11-07 00:39:48,-22.092,-70.1979,65.62,67,5,9.06,clear sky,0,0
238,Dunedin,NZ,2021-11-07 00:39:09,-45.8742,170.5036,62.58,67,97,8.66,overcast clouds,0,0
239,New Norfolk,AU,2021-11-07 00:39:48,-42.7826,147.0587,58.75,38,8,0.47,clear sky,0,0
240,Aqtobe,KZ,2021-11-07 00:39:49,50.2797,57.2072,17.69,45,0,11.18,clear sky,0,0
241,Garissa,KE,2021-11-07 00:39:49,-0.4536,39.6401,76.42,78,25,12.19,scattered clouds,0,0
242,Ust-Maya,RU,2021-11-07 00:39:49,60.4167,134.5333,7.39,92,96,6.35,overcast clouds,0,0
243,Caravelas,BR,2021-11-07 00:39:50,-17.7125,-39.2481,72.86,79,71,6.35,broken clouds,0,0
244,Catalao,BR,2021-11-07 00:39:50,-18.1658,-47.9464,76.28,51,68,2.93,broken clouds,0,0
245,Greenville,US,2021-11-07 00:39:50,35.6127,-77.3663,57.13,89,90,14.97,light rain,0,0
246,Brightwater,NZ,2021-11-07 00:39:51,-41.3833,173.1167,71.85,60,79,5.35,broken clouds,0,0
247,Narrabri,AU,2021-11-07 00:39:51,-30.3167,149.7833,80.69,50,100,18.41,overcast clouds,0,0
248,Ilulissat,GL,2021-11-07 00:39:52,69.2167,-51.1,19.42,49,75,9.22,broken clouds,0,0
249,Palmeiras De Goias,BR,2021-11-07 00:39:52,-16.805,-49.9258,75.27,66,13,3.98,few clouds,0,0
250,Sitka,US,2021-11-07 00:38:51,57.0531,-135.33,44.49,70,40,5.75,scattered clouds,0,0
251,Norman Wells,CA,2021-11-07 00:39:52,65.282,-126.8329,26.64,93,75,2.3,broken clouds,0,0
252,Lodja,CD,2021-11-07 00:39:53,-3.4833,23.4333,67.62,98,100,3.4,overcast clouds,0,0
253,Novopokrovka,UA,2021-11-07 00:39:53,49.8425,36.5477,37.78,80,11,7.78,few clouds,0,0
254,Santa Fe,AR,2021-11-07 00:39:53,-31.6333,-60.7,63.91,79,5,1.01,clear sky,0,0
255,Chokurdakh,RU,2021-11-07 00:35:11,70.6333,147.9167,-6.7,98,74,6.69,broken clouds,0,0
256,Vila Velha,BR,2021-11-07 00:39:14,-20.3297,-40.2925,73.94,81,75,4.0,broken clouds,0,0
257,Gao,ML,2021-11-07 00:39:54,16.6362,1.637,83.7,14,100,9.66,overcast clouds,0,0
258,Waingapu,ID,2021-11-07 00:39:54,-9.6567,120.2641,86.23,67,69,6.53,broken clouds,0,0
259,Tasiilaq,GL,2021-11-07 00:39:55,65.6145,-37.6368,24.96,78,75,8.34,broken clouds,0,0
260,Olga,RU,2021-11-07 00:39:55,43.7444,135.2892,40.71,42,100,6.67,overcast clouds,0,0
261,Carberry,CA,2021-11-07 00:39:55,49.8689,-99.3602,45.64,43,100,7.61,overcast clouds,0,0
262,Twin Falls,US,2021-11-07 00:39:56,42.3505,-114.6445,46.29,66,90,16.11,overcast clouds,0,0
263,Fortuna,US,2021-11-07 00:39:56,40.5982,-124.1573,56.32,71,20,4.61,few clouds,0,0
264,Mao,ES,2021-11-07 00:39:57,39.8885,4.2658,57.76,72,75,40.29,broken clouds,0,0
265,Touros,BR,2021-11-07 00:39:57,-5.1989,-35.4608,81.5,82,3,11.12,clear sky,0,0
266,Monrovia,LR,2021-11-07 00:39:57,6.3005,-10.7969,78.87,81,100,2.3,light rain,0,0
267,Bilibino,RU,2021-11-07 00:39:58,68.0546,166.4372,10.33,95,100,3.02,snow,0,0
268,Montrose,US,2021-11-07 00:39:58,38.4166,-108.2673,54.97,35,32,9.46,scattered clouds,0,0
269,Fenyi,CN,2021-11-07 00:39:58,27.8112,114.6681,66.69,93,100,4.0,overcast clouds,0,0
270,Winnipeg,CA,2021-11-07 00:37:22,49.8844,-97.147,51.87,66,20,3.44,few clouds,0,0
271,Raudeberg,NO,2021-11-07 00:39:59,61.9875,5.1352,43.47,80,100,10.16,overcast clouds,0,0
272,Pinerolo,IT,2021-11-07 00:39:59,44.8833,7.35,45.23,67,0,3.0,clear sky,0,0
273,Bengkulu,ID,2021-11-07 00:35:06,-3.8004,102.2655,73.42,95,100,15.7,overcast clouds,0,0
274,Cabedelo,BR,2021-11-07 00:40:00,-6.9811,-34.8339,81.27,82,5,10.29,clear sky,0,0
275,Bhatapara,IN,2021-11-07 00:40:00,21.7333,81.9333,64.94,63,3,5.5,clear sky,0,0
276,Guerrero Negro,MX,2021-11-07 00:40:01,27.9769,-114.0611,67.84,79,100,11.36,overcast clouds,0,0
277,Chara,RU,2021-11-07 00:40:01,56.9064,118.2631,9.7,88,100,0.83,overcast clouds,0,0
278,Mastic Beach,US,2021-11-07 00:40:02,40.7668,-72.8521,50.49,75,1,0.0,clear sky,0,0
279,Kirkcudbright,GB,2021-11-07 00:40:03,54.8383,-4.0491,47.95,70,94,30.69,light rain,0,0
280,Pustoshka,RU,2021-11-07 00:40:04,56.3355,29.369,39.09,91,100,7.34,overcast clouds,0,0
281,Dali,CN,2021-11-07 00:40:04,25.7,100.1833,51.55,59,15,0.6,few clouds,0,0
282,Gunjur,GM,2021-11-07 00:40:05,13.2019,-16.7339,78.87,94,20,5.75,few clouds,0,0
283,Benguela,AO,2021-11-07 00:40:06,-12.5763,13.4055,75.69,80,100,5.06,overcast clouds,0,0
284,Barrow,US,2021-11-07 00:40:03,71.2906,-156.7887,19.42,86,90,10.36,overcast clouds,0,0
285,Longyearbyen,SJ,2021-11-07 00:40:07,78.2186,15.6401,13.84,67,75,9.22,broken clouds,0,0
286,Port Shepstone,ZA,2021-11-07 00:40:07,-30.7414,30.455,66.92,87,80,9.78,broken clouds,0,0
287,Ypsonas,CY,2021-11-07 00:40:08,34.6884,32.9574,65.16,42,0,3.44,clear sky,0,0
288,Bani,DO,2021-11-07 00:40:08,18.2833,-70.3333,76.75,84,35,4.07,scattered clouds,0,0
289,Nueva Guinea,NI,2021-11-07 00:40:08,11.6876,-84.4562,73.54,94,100,6.78,overcast clouds,0,0
290,Butaritari,KI,2021-11-07 00:40:09,3.0707,172.7902,82.33,67,27,15.75,scattered clouds,0,0
291,Pointe Michel,DM,2021-11-07 00:40:09,15.25,-61.3833,80.06,72,7,10.76,clear sky,0,0
292,Barao De Melgaco,BR,2021-11-07 00:40:09,-16.1944,-55.9675,73.92,91,100,3.29,overcast clouds,0,0
293,Xai-Xai,MZ,2021-11-07 00:40:10,-25.0519,33.6442,72.1,90,100,4.63,overcast clouds,0,0
294,Hambantota,LK,2021-11-07 00:40:10,6.1241,81.1185,75.54,100,20,2.3,few clouds,0,0
295,Port Macquarie,AU,2021-11-07 00:40:11,-31.4333,152.9167,78.76,61,100,10.56,overcast clouds,0,0
296,Saint-Francois,FR,2021-11-07 00:40:11,46.4154,3.9054,35.67,97,100,2.3,overcast clouds,0,0
297,Nowy Tomysl,PL,2021-11-07 00:39:44,52.3195,16.1284,44.78,75,100,14.5,overcast clouds,0,0
298,Chicama,PE,2021-11-07 00:40:11,-7.8447,-79.1469,61.34,82,75,6.89,broken clouds,0,0
299,Asfi,MA,2021-11-07 00:40:12,32.2994,-9.2372,56.68,59,0,16.04,clear sky,0,0
300,Geraldton,AU,2021-11-07 00:40:12,-28.7667,114.6,66.61,48,0,17.27,clear sky,0,0
301,Qasigiannguit,GL,2021-11-07 00:40:12,68.8193,-51.1922,19.65,94,100,4.0,light snow,0,0
302,Iquique,CL,2021-11-07 00:40:13,-20.2208,-70.1431,62.64,80,56,1.92,broken clouds,0,0
303,Macaubas,BR,2021-11-07 00:40:13,-13.0194,-42.6986,69.84,90,96,1.23,overcast clouds,0,0
304,Half Moon Bay,US,2021-11-07 00:40:13,37.4636,-122.4286,64.71,77,20,1.01,few clouds,0,0
305,Aden,YE,2021-11-07 00:35:48,12.7794,45.0367,81.3,61,6,11.05,clear sky,0,0
306,Aykhal,RU,2021-11-07 00:40:14,66.0,111.5,4.64,94,100,16.13,overcast clouds,0,0
307,Iquira,CO,2021-11-07 00:40:14,2.6487,-75.6346,66.92,87,21,3.24,few clouds,0,0
308,Ratnapura,LK,2021-11-07 00:40:15,6.6828,80.3992,74.46,98,100,2.37,overcast clouds,0,0
309,Savyntsi,UA,2021-11-07 00:40:15,49.4026,37.0627,40.55,83,7,6.85,clear sky,0,0
310,Xifeng,CN,2021-11-07 00:40:15,42.7372,124.7222,28.04,77,100,10.11,overcast clouds,0,0
311,Santa Isabel Do Rio Negro,BR,2021-11-07 00:40:16,-0.4139,-65.0192,76.44,88,90,2.75,overcast clouds,0,0
312,Saint-Joseph,RE,2021-11-07 00:40:10,-21.3667,55.6167,71.98,81,19,9.69,few clouds,0,0
313,Muisne,EC,2021-11-07 00:40:16,0.6,-80.0333,75.06,86,100,9.51,overcast clouds,0,0
314,Dhidhdhoo,MV,2021-11-07 00:40:17,6.8833,73.1,81.5,77,100,14.34,overcast clouds,0,0
315,Shimoda,JP,2021-11-07 00:40:17,34.6667,138.95,59.36,88,100,14.29,overcast clouds,0,0
316,Kenitra,MA,2021-11-07 00:40:18,34.261,-6.5802,53.73,54,0,9.35,clear sky,0,0
317,Broni,IT,2021-11-07 00:40:18,45.0655,9.2623,47.01,81,4,3.51,clear sky,0,0
318,Sal Rei,CV,2021-11-07 00:40:19,16.1833,-22.9167,75.76,72,100,14.74,overcast clouds,0,0
319,Anchorage,US,2021-11-07 00:35:21,61.2181,-149.9003,33.84,83,90,4.0,light snow,0,0
320,Brae,GB,2021-11-07 00:40:19,60.3964,-1.353,49.91,82,100,21.92,overcast clouds,0,0
321,Rafraf,TN,2021-11-07 00:40:19,37.1904,10.1837,59.31,79,0,7.23,clear sky,0,0
322,Vestmannaeyjar,IS,2021-11-07 00:40:20,63.4427,-20.2734,38.03,83,68,22.26,broken clouds,0,0
323,Aljezur,PT,2021-11-07 00:40:20,37.3191,-8.8033,47.62,54,0,7.92,clear sky,0,0
324,Paramonga,PE,2021-11-07 00:40:21,-10.6667,-77.8333,65.07,85,99,9.55,overcast clouds,0,0
325,Okahandja,NA,2021-11-07 00:40:21,-21.9833,16.9167,73.83,19,71,4.7,broken clouds,0,0
326,Ayutla,MX,2021-11-07 00:40:21,20.1167,-104.3333,68.54,62,89,1.48,overcast clouds,0,0
327,Sao Miguel Do Araguaia,BR,2021-11-07 00:40:22,-13.275,-50.1628,73.63,93,100,5.91,overcast clouds,0,0
328,De-Kastri,RU,2021-11-07 00:40:22,51.4667,140.7833,24.57,49,0,14.41,clear sky,0,0
329,Lekoni,GA,2021-11-07 00:40:22,-1.5843,14.2591,70.18,92,100,2.75,light rain,0,0
330,Bhaderwah,IN,2021-11-07 00:40:23,32.9784,75.7186,44.13,52,0,2.91,clear sky,0,0
331,Moron,AR,2021-11-07 00:40:23,-34.6534,-58.6198,63.0,72,94,5.99,overcast clouds,0,0
332,Marion,US,2021-11-07 00:40:24,39.7684,-86.1555,48.72,69,1,4.61,clear sky,0,0
333,Lakes Entrance,AU,2021-11-07 00:40:24,-37.8811,147.981,63.57,90,100,8.52,overcast clouds,0,0
334,Sambava,MG,2021-11-07 00:40:24,-14.2667,50.1667,70.83,85,12,8.66,few clouds,0,0
335,Alofi,NU,2021-11-07 00:40:25,-19.0595,-169.9187,80.49,74,86,14.97,overcast clouds,0,0
336,Biloela,AU,2021-11-07 00:40:25,-24.4167,150.5,86.29,43,44,13.82,scattered clouds,0,0
337,Kyshtovka,RU,2021-11-07 00:40:25,56.555,76.6271,30.69,78,100,15.19,overcast clouds,0,0
338,Tikhvin,RU,2021-11-07 00:40:26,59.6451,33.5294,36.21,81,100,10.4,overcast clouds,0,0
339,Ngozi,BI,2021-11-07 00:40:26,-2.9075,29.8306,55.08,93,91,1.1,overcast clouds,0,0
340,Buchanan,LR,2021-11-07 00:40:27,5.8808,-10.0467,76.51,90,100,4.32,light rain,0,0
341,Tambun,ID,2021-11-07 00:40:27,-6.2641,107.0712,87.04,94,20,3.44,haze,0,0
342,Klaksvik,FO,2021-11-07 00:40:27,62.2266,-6.589,47.32,96,100,24.2,overcast clouds,0,0
343,Lorengau,PG,2021-11-07 00:40:28,-2.0226,147.2712,83.93,77,88,9.62,overcast clouds,0,0
344,Ecija,ES,2021-11-07 00:40:28,37.5422,-5.0826,49.75,46,0,5.17,clear sky,0,0
345,Lielvarde,LV,2021-11-07 00:40:28,56.7207,24.8074,40.59,96,100,4.88,overcast clouds,0,0
346,Kailua,US,2021-11-07 00:36:18,21.4022,-157.7394,87.78,74,90,11.5,overcast clouds,0,0
347,Alyangula,AU,2021-11-07 00:40:29,-13.8483,136.4192,87.67,70,40,9.22,scattered clouds,0,0
348,Olafsvik,IS,2021-11-07 00:40:29,64.8945,-23.7142,35.08,70,85,8.72,heavy snow,0,0
349,Baruun-Urt,MN,2021-11-07 00:40:30,46.6806,113.2792,12.04,41,1,11.03,clear sky,0,0
350,Maraa,BR,2021-11-07 00:40:30,-1.8333,-65.3667,73.04,97,56,1.23,broken clouds,0,0
351,Borovskoy,KZ,2021-11-07 00:40:30,53.8,64.15,31.39,38,100,20.58,overcast clouds,0,0
352,Bocas Del Toro,PA,2021-11-07 00:40:31,9.3333,-82.25,80.4,81,99,5.7,overcast clouds,0,0
353,Huangmei,CN,2021-11-07 00:40:31,30.1924,116.025,57.69,94,100,7.2,light rain,0,0
354,Norman,US,2021-11-07 00:35:59,35.2226,-97.4395,61.21,68,1,6.91,clear sky,0,0
355,Jibuti,DJ,2021-11-07 00:37:29,11.5,42.5,74.62,74,13,10.07,few clouds,0,0
356,Bangassou,CF,2021-11-07 00:40:32,4.7413,22.8184,69.28,99,100,1.05,overcast clouds,0,0
357,Waipawa,NZ,2021-11-07 00:40:32,-41.4122,175.5153,62.29,90,100,4.94,overcast clouds,0,0
358,Maningrida,AU,2021-11-07 00:40:33,-12.0667,134.2667,89.76,52,33,8.79,scattered clouds,0,0
359,Dzhebariki-Khaya,RU,2021-11-07 00:40:33,62.2167,135.8,-3.78,98,99,1.28,overcast clouds,0,0
360,Saint-Pierre,RE,2021-11-07 00:40:34,-21.3393,55.4781,70.29,75,0,5.75,clear sky,0,0
361,Cayhagan,PH,2021-11-07 00:40:34,9.6697,122.4256,83.05,77,82,9.28,broken clouds,0,0
362,Komsomolskiy,UZ,2021-11-07 00:40:34,40.4272,71.7189,33.22,74,75,2.3,mist,0,0
363,Synya,RU,2021-11-07 00:40:35,65.3718,58.0387,35.19,98,100,9.4,light rain,0,0
364,Mola Di Bari,IT,2021-11-07 00:40:35,41.0609,17.0873,63.59,93,88,6.71,overcast clouds,0,0
365,Flinders,AU,2021-11-07 00:40:35,-34.5833,150.8552,76.28,61,99,4.27,overcast clouds,0,0
366,Yarmouth,US,2021-11-07 00:40:36,41.7057,-70.2286,48.96,78,1,0.0,clear sky,0,0
367,Healdsburg,US,2021-11-07 00:40:36,38.6105,-122.8692,62.28,70,75,1.01,broken clouds,0,0
368,Kavaratti,IN,2021-11-07 00:40:36,10.5669,72.642,81.59,72,85,9.8,overcast clouds,0,0
369,Songadh,IN,2021-11-07 00:40:37,21.1667,73.5667,71.33,46,86,6.96,overcast clouds,0,0
370,Kushiro,JP,2021-11-07 00:40:37,42.975,144.3747,49.15,87,75,8.05,broken clouds,0,0
371,Surin,TH,2021-11-07 00:40:37,14.8818,103.4936,82.9,99,89,4.05,light rain,0,0
372,Lillooet,CA,2021-11-07 00:40:38,50.6856,-121.942,43.52,82,100,2.91,overcast clouds,0,0
373,Laibin,CN,2021-11-07 00:40:39,23.7,109.2667,74.59,88,86,4.16,overcast clouds,0,0
374,Martapura,ID,2021-11-07 00:40:39,-3.4167,114.85,80.69,89,20,5.75,few clouds,0,0
375,Palmas,BR,2021-11-07 00:36:51,-10.2128,-48.3603,73.27,100,75,4.61,broken clouds,0,0
376,Mubi,NG,2021-11-07 00:40:40,10.2676,13.2644,78.6,36,75,3.04,broken clouds,0,0
377,Turukhansk,RU,2021-11-07 00:40:40,65.8167,87.9833,28.87,96,100,22.53,snow,0,0
378,Samana,DO,2021-11-07 00:40:41,19.2056,-69.3369,77.27,89,28,6.02,scattered clouds,0,0
379,Khartoum,SD,2021-11-07 00:40:06,15.5518,32.5324,84.9,21,0,13.27,clear sky,0,0
380,Great Yarmouth,GB,2021-11-07 00:37:29,52.6083,1.7305,55.24,79,8,20.13,clear sky,0,0
381,Nizhniy Kuranakh,RU,2021-11-07 00:40:41,58.8353,125.4869,17.51,88,100,8.99,overcast clouds,0,0
382,Puerto Narino,CO,2021-11-07 00:40:42,-3.7703,-70.3831,75.15,97,80,1.41,broken clouds,0,0
383,Hauterive,FR,2021-11-07 00:40:42,46.0901,3.4459,41.76,95,100,1.01,overcast clouds,0,0
384,Ahipara,NZ,2021-11-07 00:40:42,-35.1667,173.1667,66.36,71,34,3.67,scattered clouds,0,0
385,Mansa,IN,2021-11-07 00:40:43,29.9833,75.3833,63.34,42,0,3.47,clear sky,0,0
386,Yarkovo,RU,2021-11-07 00:40:43,57.4028,67.0786,37.11,49,100,15.57,overcast clouds,0,0
387,Tecoanapa,MX,2021-11-07 00:40:43,16.5167,-98.75,79.75,78,58,4.81,broken clouds,0,0
388,Madona,LV,2021-11-07 00:40:44,56.8533,26.217,38.93,96,100,5.61,overcast clouds,0,0
389,Fairbanks,US,2021-11-07 00:39:24,64.8378,-147.7164,25.61,92,90,0.0,mist,0,0
390,Imbituba,BR,2021-11-07 00:40:44,-28.24,-48.6703,70.83,91,94,4.14,overcast clouds,0,0
391,Sunbury,AU,2021-11-07 00:40:44,-37.5833,144.7333,57.97,83,75,12.66,broken clouds,0,0
392,Kempsey,AU,2021-11-07 00:40:45,-31.0833,152.8333,77.95,71,100,11.99,overcast clouds,0,0
393,Simplicio Mendes,BR,2021-11-07 00:40:45,-7.8539,-41.9103,74.8,87,100,4.59,overcast clouds,0,0
394,Mitsamiouli,KM,2021-11-07 00:40:45,-11.3847,43.2844,78.82,82,100,7.94,overcast clouds,0,0
395,Tondano,ID,2021-11-07 00:40:46,1.3038,124.9112,73.49,65,58,2.39,broken clouds,0,0
396,Quarai,BR,2021-11-07 00:40:46,-30.3875,-56.4514,62.91,78,66,10.25,broken clouds,0,0
397,Kudahuvadhoo,MV,2021-11-07 00:40:46,2.6708,72.8944,81.79,77,83,16.2,broken clouds,0,0
398,Ambon,ID,2021-11-07 00:40:47,-3.6954,128.1814,86.14,70,20,4.61,few clouds,0,0
399,Walvis Bay,NA,2021-11-07 00:36:29,-22.9575,14.5053,54.55,82,0,5.75,clear sky,0,0
400,Virginia Beach,US,2021-11-07 00:36:48,36.8529,-75.978,59.04,72,100,7.0,overcast clouds,0,0
401,Poum,NC,2021-11-07 00:40:47,-20.2333,164.0167,73.15,73,35,3.67,scattered clouds,0,0
402,Honiara,SB,2021-11-07 00:40:48,-9.4333,159.95,87.28,62,7,7.45,clear sky,0,0
403,Gandai,IN,2021-11-07 00:40:48,21.6667,81.1,61.5,60,4,3.15,clear sky,0,0
404,Yershov,RU,2021-11-07 00:40:48,51.3513,48.2766,38.79,71,100,15.75,light rain,0,0
405,Faanui,PF,2021-11-07 00:40:49,-16.4833,-151.75,80.37,69,98,4.12,overcast clouds,0,0
406,Tonantins,BR,2021-11-07 00:40:49,-2.8731,-67.8022,74.23,97,56,1.5,broken clouds,0,0
407,Katangli,RU,2021-11-07 00:40:49,51.7102,143.2326,24.31,51,5,19.51,clear sky,0,0
408,Saint-Augustin,CA,2021-11-07 00:40:50,51.226,-58.6502,36.57,88,100,12.62,overcast clouds,0,0
409,Petropavlovsk-Kamchatskiy,RU,2021-11-07 00:40:50,53.0452,158.6483,32.59,55,75,4.47,broken clouds,0,0
410,Sayyan,YE,2021-11-07 00:40:51,15.1718,44.3244,50.49,30,49,3.69,scattered clouds,0,0
411,Yulara,AU,2021-11-07 00:40:51,-25.2406,130.9889,69.64,83,90,14.97,overcast clouds,0,0
412,Jumla,NP,2021-11-07 00:40:51,29.2747,82.1838,40.5,34,8,5.01,clear sky,0,0
413,Bukachacha,RU,2021-11-07 00:40:52,52.9833,116.9167,14.41,76,14,2.64,few clouds,0,0
414,Chapleau,CA,2021-11-07 00:40:52,47.8405,-83.4034,44.69,76,90,12.66,overcast clouds,0,0
415,Belyy Yar,RU,2021-11-07 00:40:52,53.6039,91.3903,30.09,71,40,11.18,light shower snow,0,0
416,Russell,US,2021-11-07 00:40:53,32.3502,-85.1999,55.0,81,1,0.0,clear sky,0,0
417,Naze,JP,2021-11-07 00:40:53,28.3667,129.4833,72.52,73,52,19.64,broken clouds,0,0
418,Pacific Grove,US,2021-11-07 00:39:36,36.6177,-121.9166,66.15,81,1,1.99,clear sky,0,0
419,Nemuro,JP,2021-11-07 00:40:53,43.3236,145.575,46.83,81,100,11.05,overcast clouds,0,0
420,Luang Prabang,LA,2021-11-07 00:40:54,19.8856,102.1347,71.56,100,90,4.61,fog,0,0
421,Willmar,US,2021-11-07 00:40:54,45.1219,-95.0433,60.4,50,1,3.44,clear sky,0,0
422,Siva,EG,2021-11-07 00:40:55,29.2041,25.5195,66.9,69,5,6.2,clear sky,0,0
423,Mehamn,NO,2021-11-07 00:40:55,71.0357,27.8492,31.17,68,99,7.63,overcast clouds,0,0
424,Pitimbu,BR,2021-11-07 00:40:55,-7.4706,-34.8086,81.19,83,3,11.18,clear sky,0,0
425,Pisco,PE,2021-11-07 00:40:56,-13.7,-76.2167,64.45,82,0,13.8,clear sky,0,0
426,Laguna,US,2021-11-07 00:39:08,38.421,-121.4238,63.46,69,75,1.01,broken clouds,0,0
427,Tapejara,BR,2021-11-07 00:40:56,-28.0681,-52.0139,63.39,86,100,8.9,overcast clouds,0,0
428,Grass Valley,US,2021-11-07 00:40:57,39.2191,-121.0611,54.12,92,90,1.99,overcast clouds,0,0
429,Shestakovo,RU,2021-11-07 00:40:57,56.4915,103.96,25.0,95,100,7.52,light snow,0,0
430,Birjand,IR,2021-11-07 00:36:33,32.8663,59.2211,46.87,57,40,6.91,scattered clouds,0,0
431,Hun,LY,2021-11-07 00:40:58,29.1268,15.9477,70.03,30,15,9.82,few clouds,0,0
432,Jiaojiang,CN,2021-11-07 00:40:58,28.6803,121.4428,71.01,83,62,5.99,light rain,0,0
433,Nantucket,US,2021-11-07 00:40:59,41.2835,-70.0995,47.97,71,1,3.44,clear sky,0,0
434,Honningsvag,NO,2021-11-07 00:40:59,70.9821,25.9704,35.51,58,99,13.09,overcast clouds,0,0
435,Saint Austell,GB,2021-11-07 00:40:59,50.3383,-4.7658,54.09,87,75,13.8,broken clouds,0,0
436,Sharkan,RU,2021-11-07 00:41:00,57.2989,53.8712,38.16,92,100,16.17,overcast clouds,0,0
437,Tura,IN,2021-11-07 00:37:39,25.5198,90.2201,63.59,88,6,3.51,clear sky,0,0
438,Ambulu,ID,2021-11-07 00:41:00,-8.345,113.6058,83.44,72,98,1.43,overcast clouds,0,0
439,Labuhan,ID,2021-11-07 00:41:01,-6.8844,112.2051,86.52,62,100,2.08,overcast clouds,0,0
440,Angoram,PG,2021-11-07 00:41:01,-4.0625,144.0661,90.14,55,55,3.15,broken clouds,0,0
441,Port Said,EG,2021-11-07 00:41:02,31.2565,32.2841,75.67,68,7,12.48,clear sky,0,0
442,Seaford,GB,2021-11-07 00:41:02,50.7714,0.1027,56.44,89,100,11.99,overcast clouds,0,0
443,Ukiah,US,2021-11-07 00:41:03,39.1502,-123.2078,57.56,67,1,8.05,clear sky,0,0
444,Isangel,VU,2021-11-07 00:41:03,-19.55,169.2667,80.71,74,75,9.22,broken clouds,0,0
445,Dehui,CN,2021-11-07 00:41:03,44.5333,125.7,23.31,27,100,8.63,overcast clouds,0,0
446,Amurzet,RU,2021-11-07 00:41:04,47.6967,131.0981,25.11,24,100,4.43,overcast clouds,0,0
447,Abu Samrah,SY,2021-11-07 00:41:04,35.3029,37.1841,62.08,45,0,1.41,clear sky,0,0
448,Nadym,RU,2021-11-07 00:41:04,65.5333,72.5167,34.93,98,100,18.68,overcast clouds,0,0
449,Tiarei,PF,2021-11-07 00:37:44,-17.5333,-149.3333,82.42,78,81,3.71,moderate rain,0,0
450,Ygatimi,PY,2021-11-07 00:41:05,-24.0833,-55.5,71.56,93,19,2.46,few clouds,0,0
451,Qianan,CN,2021-11-07 00:41:05,44.9932,124.0581,25.66,30,100,5.99,overcast clouds,0,0
452,Cayenne,GF,2021-11-07 00:41:06,4.9333,-52.3333,81.09,85,75,1.99,broken clouds,0,0
453,Fare,PF,2021-11-07 00:41:06,-16.7,-151.0167,79.77,67,100,2.57,overcast clouds,0,0
454,Nicoya,CR,2021-11-07 00:41:06,10.1483,-85.452,76.55,91,98,2.37,overcast clouds,0,0
455,Maryville,US,2021-11-07 00:38:30,35.7565,-83.9705,50.09,67,75,1.99,broken clouds,0,0
456,Axim,GH,2021-11-07 00:41:07,4.8699,-2.2405,78.17,88,59,4.83,broken clouds,0,0
457,Tuatapere,NZ,2021-11-07 00:41:07,-46.1333,167.6833,62.82,52,100,6.24,overcast clouds,0,0
458,Hervey Bay,AU,2021-11-07 00:41:08,-25.2986,152.8535,81.03,67,20,11.59,few clouds,0,0
459,Srednekolymsk,RU,2021-11-07 00:41:08,67.45,153.6833,4.77,94,100,7.9,overcast clouds,0,0
460,Golspie,GB,2021-11-07 00:41:08,57.9727,-3.978,49.14,74,79,35.84,broken clouds,0,0
461,Najran,SA,2021-11-07 00:41:09,17.4924,44.1277,59.65,28,58,1.1,broken clouds,0,0
462,Tilichiki,RU,2021-11-07 00:41:09,60.4667,166.1,28.36,90,100,4.81,overcast clouds,0,0
463,Ribeira Brava,PT,2021-11-07 00:41:09,32.65,-17.0667,68.63,69,29,9.84,scattered clouds,0,0
464,Alta Floresta,BR,2021-11-07 00:41:10,-9.8756,-56.0861,70.7,99,100,2.37,overcast clouds,0,0
465,Gamba,GA,2021-11-07 00:41:10,-2.65,10.0,76.05,90,100,3.47,overcast clouds,0,0
466,Sotouboua,TG,2021-11-07 00:41:12,8.5667,0.9833,75.24,79,98,2.39,overcast clouds,0,0
467,Vanimo,PG,2021-11-07 00:38:53,-2.6741,141.3028,86.74,58,78,4.68,broken clouds,0,0
468,Gigmoto,PH,2021-11-07 00:41:12,13.7796,124.39,81.75,86,100,10.56,overcast clouds,0,0
469,Denpasar,ID,2021-11-07 00:39:59,-8.65,115.2167,82.06,78,20,4.61,few clouds,0,0
470,Itacare,BR,2021-11-07 00:41:13,-14.2775,-38.9967,80.49,93,100,6.4,overcast clouds,0,0
471,Kirakira,SB,2021-11-07 00:41:13,-10.4544,161.9205,84.61,70,12,7.45,few clouds,0,0
472,Maputo,MZ,2021-11-07 00:38:51,-25.9653,32.5892,73.08,88,75,4.61,thunderstorm,0,0
473,Clarksdale,US,2021-11-07 00:41:14,34.2001,-90.5709,51.91,87,75,0.0,broken clouds,0,0
474,Nakhon Phanom,TH,2021-11-07 00:41:14,17.3333,104.4167,76.8,75,11,2.84,light rain,0,0
475,Tombouctou,ML,2021-11-07 00:41:14,20.0,-3.0,79.77,20,19,10.02,few clouds,0,0
476,Devils Lake,US,2021-11-07 00:41:15,48.1128,-98.8651,50.95,66,1,5.01,clear sky,0,0
477,Banda Aceh,ID,2021-11-07 00:40:08,5.5577,95.3222,77.29,88,100,1.7,overcast clouds,0,0
478,North Bend,US,2021-11-07 00:41:15,43.4065,-124.2243,50.86,91,75,10.36,broken clouds,0,0
479,Shirokiy,RU,2021-11-07 00:41:16,49.758,129.523,19.02,63,1,3.71,clear sky,0,0
480,Mnogovershinnyy,RU,2021-11-07 00:41:16,53.9353,139.9242,18.63,67,99,22.88,overcast clouds,0,0
481,Ziro,IN,2021-11-07 00:41:16,27.6333,93.8333,38.14,76,75,2.04,broken clouds,0,0
482,Matagami,CA,2021-11-07 00:39:06,49.7502,-77.6328,46.51,71,90,4.61,overcast clouds,0,0
483,Muzhi,RU,2021-11-07 00:41:17,65.3667,64.6667,34.9,89,55,13.2,broken clouds,0,0
484,Omboue,GA,2021-11-07 00:41:17,-1.5746,9.2618,76.96,90,100,5.1,overcast clouds,0,0
485,Launceston,AU,2021-11-07 00:41:18,-41.45,147.1667,66.15,58,75,16.11,broken clouds,0,0
486,Thurso,GB,2021-11-07 00:38:12,58.5927,-3.5259,47.86,87,100,41.81,overcast clouds,0,0
487,Mizan Teferi,ET,2021-11-07 00:41:18,6.9833,35.5833,60.15,92,88,3.33,overcast clouds,0,0
488,Bandarbeyla,SO,2021-11-07 00:41:19,9.4942,50.8122,75.25,79,29,10.0,scattered clouds,0,0
489,Victoria,HK,2021-11-07 00:37:15,22.2855,114.1577,82.45,85,1,1.01,clear sky,0,0
490,Batagay-Alyta,RU,2021-11-07 00:41:19,67.8006,130.4114,-9.99,82,100,5.41,overcast clouds,0,0
491,Mineiros,BR,2021-11-07 00:41:20,-17.5694,-52.5511,71.53,78,100,3.47,overcast clouds,0,0
492,Conde,BR,2021-11-07 00:41:20,-7.2597,-34.9075,80.06,78,20,8.05,few clouds,0,0
493,Kalabo,ZM,2021-11-07 00:41:20,-14.97,22.6814,76.5,45,51,4.09,broken clouds,0,0
494,Paraguacu,BR,2021-11-07 00:41:21,-21.5472,-45.7375,67.59,73,35,3.0,scattered clouds,0,0
495,San Patricio,US,2021-11-07 00:40:13,28.017,-97.5169,66.88,57,0,7.4,clear sky,0,0
496,Murakami,JP,2021-11-07 00:41:21,38.2333,139.4833,57.09,61,0,3.58,clear sky,0,0
497,Monte Escobedo,MX,2021-11-07 00:41:22,22.3,-103.5833,57.58,29,4,6.8,clear sky,0,0
498,Miyako,JP,2021-11-07 00:41:22,39.6367,141.9525,58.19,62,1,1.34,clear sky,0,0
499,Fergus Falls,US,2021-11-07 00:41:22,46.283,-96.0776,53.58,56,1,6.91,clear sky,0,0
500,Qui Nhon,VN,2021-11-07 00:41:23,13.7667,109.2333,78.13,84,39,6.64,scattered clouds,0,0
501,Churapcha,RU,2021-11-07 00:41:23,62.0025,132.4325,3.09,96,100,3.4,overcast clouds,0,0
502,Havoysund,NO,2021-11-07 00:41:23,70.9963,24.6622,29.28,72,100,5.88,light snow,0,0
503,Alihe,CN,2021-11-07 00:41:24,50.5667,123.7167,21.51,43,0,3.94,clear sky,0,0
504,Santa Vitoria,BR,2021-11-07 00:41:24,-18.8386,-50.1214,82.71,45,80,6.35,broken clouds,0,0
505,Port Augusta,AU,2021-11-07 00:40:19,-32.5,137.7667,73.71,50,46,14.65,scattered clouds,0,0
506,Yerbogachen,RU,2021-11-07 00:41:25,61.2767,108.0108,6.35,98,82,6.73,broken clouds,0,0
507,Balkanabat,TM,2021-11-07 00:41:25,39.5108,54.3671,43.07,36,71,2.91,broken clouds,0,0
508,Machaneng,BW,2021-11-07 00:41:25,-23.1862,27.4886,73.69,60,80,7.76,light rain,0,0
509,La Baule-Escoublac,FR,2021-11-07 00:41:26,47.2922,-2.364,55.87,85,90,5.75,overcast clouds,0,0
510,Botwood,CA,2021-11-07 00:41:26,49.1499,-55.3482,40.48,89,20,8.43,few clouds,0,0
511,Yabrud,SY,2021-11-07 00:41:26,33.9674,36.6574,51.53,40,0,4.0,clear sky,0,0
512,Aguada De Pasajeros,CU,2021-11-07 00:41:27,22.385,-80.8508,71.74,76,93,7.09,overcast clouds,0,0
513,Asau,RO,2021-11-07 00:41:27,46.4333,26.4,47.95,66,100,2.28,light rain,0,0
514,Nigde,TR,2021-11-07 00:41:27,37.8333,34.75,43.14,47,10,4.76,clear sky,0,0
515,Inuvik,CA,2021-11-07 00:41:28,68.3499,-133.7218,13.06,92,40,8.05,scattered clouds,0,0
516,Ardesen,TR,2021-11-07 00:41:28,41.1911,40.9875,53.56,68,99,4.76,overcast clouds,0,0
517,Ilhabela,BR,2021-11-07 00:41:28,-23.7781,-45.3581,69.21,85,57,5.3,broken clouds,0,0
518,Ndele,CF,2021-11-07 00:41:29,8.4109,20.6473,73.63,81,92,2.86,overcast clouds,0,0
519,Dukat,RU,2021-11-07 00:41:29,62.55,155.55,18.63,96,100,5.91,overcast clouds,0,0
520,Watsa,CD,2021-11-07 00:41:30,3.0372,29.5355,62.58,94,9,2.3,clear sky,0,0
521,Changji,CN,2021-11-07 00:41:30,44.0167,87.3167,18.39,73,0,2.24,clear sky,0,0
522,Karratha,AU,2021-11-07 00:41:23,-20.7377,116.8463,82.74,41,5,9.13,clear sky,0,0
523,Gabriel Leyva Solano,MX,2021-11-07 00:41:30,25.6667,-108.6417,84.02,40,100,10.51,overcast clouds,0,0
524,Graaff-Reinet,ZA,2021-11-07 00:37:26,-32.2522,24.5308,55.92,84,100,7.92,light rain,0,0
525,Kasongo-Lunda,CD,2021-11-07 00:41:31,-6.4667,16.8167,68.9,97,100,1.74,overcast clouds,0,0
526,Barcelos,PT,2021-11-07 00:41:31,41.5388,-8.6151,46.85,68,3,4.29,clear sky,0,0
527,Coahuayana,MX,2021-11-07 00:41:32,18.7333,-103.6833,78.22,88,100,2.1,overcast clouds,0,0
528,Kangaatsiaq,GL,2021-11-07 00:41:32,68.3065,-53.4641,25.68,82,95,8.86,overcast clouds,0,0
529,Zhanakorgan,KZ,2021-11-07 00:41:32,43.9098,67.2495,31.46,23,0,6.89,clear sky,0,0
530,Tucurui,BR,2021-11-07 00:41:33,-3.7661,-49.6725,75.04,93,88,3.31,overcast clouds,0,0
531,Moose Factory,CA,2021-11-07 00:41:33,51.2585,-80.6094,48.2,76,90,6.91,overcast clouds,0,0
532,Chake Chake,TZ,2021-11-07 00:41:33,-5.2459,39.7666,74.5,87,58,2.84,broken clouds,0,0
533,Aklavik,CA,2021-11-07 00:41:34,68.2191,-135.0107,13.03,97,91,2.53,overcast clouds,0,0
534,Prince Rupert,CA,2021-11-07 00:41:34,54.3161,-130.3201,42.49,87,100,5.75,light rain,0,0
535,Port-Gentil,GA,2021-11-07 00:41:34,-0.7193,8.7815,78.84,86,100,10.31,overcast clouds,0,0
536,Dauphin,CA,2021-11-07 00:41:35,51.1494,-100.0502,50.14,50,1,5.75,clear sky,0,0
537,Itapetinga,BR,2021-11-07 00:40:14,-15.2489,-40.2478,70.45,98,100,4.18,overcast clouds,0,0
538,Palmer,US,2021-11-07 00:41:35,42.1584,-72.3287,41.38,78,1,0.0,clear sky,0,0
539,Muriae,BR,2021-11-07 00:41:35,-21.1306,-42.3664,67.28,94,85,4.36,overcast clouds,0,0
540,Obo,CF,2021-11-07 00:41:36,5.3998,26.4869,68.74,91,20,1.83,few clouds,0,0
541,Campo Maior,BR,2021-11-07 00:41:36,-4.8278,-42.1686,81.43,67,45,5.08,scattered clouds,0,0
542,Port Hardy,CA,2021-11-07 00:41:37,50.6996,-127.4199,42.98,81,75,5.75,broken clouds,0,0
543,Cidreira,BR,2021-11-07 00:41:37,-30.1811,-50.2056,64.83,69,100,11.72,overcast clouds,0,0
544,Alekseyevka,RU,2021-11-07 00:41:37,50.6309,38.6903,40.68,83,3,10.18,clear sky,0,0
545,Shelburne,CA,2021-11-07 00:41:29,44.0787,-80.2041,43.25,79,63,11.86,broken clouds,0,0
546,Locri,IT,2021-11-07 00:41:38,38.2414,16.2623,76.91,93,100,6.6,overcast clouds,0,0
547,Ginir,ET,2021-11-07 00:41:38,7.1333,40.7,54.91,70,5,5.3,clear sky,0,0
548,Ilinskiy,RU,2021-11-07 00:41:38,55.619,38.1182,46.11,81,75,15.66,light intensity shower rain,0,0
549,Necochea,AR,2021-11-07 00:37:46,-38.5473,-58.7368,50.04,67,100,9.28,overcast clouds,0,0
550,Lianzhou,CN,2021-11-07 00:41:39,24.7811,112.3825,74.3,92,93,2.21,overcast clouds,0,0
551,Creel,MX,2021-11-07 00:41:39,27.75,-107.6333,54.77,53,12,5.01,few clouds,0,0
552,Peniche,PT,2021-11-07 00:41:40,39.3558,-9.3811,54.63,82,3,14.85,clear sky,0,0
553,Salalah,OM,2021-11-07 00:40:19,17.0151,54.0924,73.47,77,89,1.25,overcast clouds,0,0
554,Dingle,PH,2021-11-07 00:38:52,10.9995,122.6711,83.62,78,92,11.25,overcast clouds,0,0
555,Bowen,AU,2021-11-07 00:41:40,-20.0167,148.2333,86.22,64,96,10.4,overcast clouds,0,0
556,Ambilobe,MG,2021-11-07 00:41:41,-13.2,49.05,70.86,81,8,4.12,clear sky,0,0
557,Richards Bay,ZA,2021-11-07 00:41:41,-28.783,32.0377,68.61,90,100,2.59,overcast clouds,0,0
558,Miri,MY,2021-11-07 00:41:41,4.4148,114.0089,78.94,94,40,2.3,scattered clouds,0,0
